,latitude,longitude,station id,station name,nhood id
0,40.746745000000004,-74.007756,459,W 20 St & 11 Ave,4
1,40.73028666,-73.9907647,293,Lafayette St & E 8 St,10
2,40.71774592,-73.95600096,3090,N 8 St & Driggs Ave,10
3,40.7390169121,-74.0026376103,284,Greenwich Ave & 8 Ave,4
4,40.72710258,-74.00297088,128,MacDougal St & Prince St,4
5,40.72955361,-73.98057249,433,E 13 St & Avenue A,10
6,40.73532427,-73.99800419,254,W 11 St & 6 Ave,4
7,40.76009437,-73.99461843,515,W 43 St & 10 Ave,5
8,40.711065999999995,-74.009447,319,Fulton St & Broadway,3
9,40.69452800000001,-73.958089,372,Franklin Ave & Myrtle Ave,12
10,40.70706456,-74.00731853,264,Maiden Ln & Pearl St,3
11,40.77536905,-73.94803392,3150,E 85 St & York Ave,6
12,40.72243797,-74.00566443,377,6 Ave & Canal St,3
13,40.728846000000004,-74.00859100000002,347,Greenwich St & W Houston St,4
14,40.744023,-73.976056,527,E 33 St & 2 Ave,11
15,40.69089272,-73.99612349,157,Henry St & Atlantic Ave,2
16,40.74475148,-73.99915362,453,W 22 St & 8 Ave,4
17,40.751551,-73.993934,490,8 Ave & W 33 St,8
18,40.75019995,-73.99093085,492,W 33 St & 7 Ave,8
19,40.73047309,-73.98672378,237,E 11 St & 2 Ave,10
20,40.73172428,-74.00674436,127,Barrow St & Hudson St,4
21,40.72066442,-73.98517977,410,Suffolk St & Stanton St,1
22,40.71260486,-73.96264403,481,S 3 St & Bedford Ave,1
23,40.72938685,-73.97772429,511,E 14 St & Avenue B,10
24,40.73261787,-73.99158043,357,E 11 St & Broadway,10
25,40.73524276,-73.98758561,475,E 16 St & Irving Pl,10
26,40.71291224,-74.01020234,417,Barclay St & Church St,3
27,40.7489006,-73.97604882,167,E 39 St & 3 Ave,11
28,40.70277159,-73.99383605,217,Old Fulton St,2
29,40.71745169,-73.95850939,3093,N 6 St & Bedford Ave,10
30,40.73047747,-73.99906065,336,Sullivan St & Washington Sq,4
31,40.76087502,-74.00277668,514,12 Ave & W 40 St,5
32,40.77565541,-73.95068615,3148,E 84 St & 1 Ave,6
33,40.74317449,-74.00366443,434,9 Ave & W 18 St,4
34,40.69236178,-73.98631746,323,Lawrence St & Willoughby St,2
35,40.74238787,-73.99726235,334,W 20 St & 7 Ave,4
36,40.73381219196632,-73.9805442094803,2003,1 Ave & E 18 St,10
37,40.77112927,-73.95772297,3135,E 75 St & 3 Ave,6
38,40.72490985,-74.00154702,348,W Broadway & Spring St,3
39,40.751396,-74.00522600000002,458,11 Ave & W 27 St,5
40,40.736502,-73.97809472,545,E 23 St & 1 Ave,10
41,40.73223272,-73.98889957,483,E 12 St & 3 Ave,10
42,40.715143,-73.944507,3086,Graham Ave & Conselyea St,10
43,40.74444921,-73.98303529,546,E 30 St & Park Ave S,8
44,40.70767788,-73.94016171,3074,Montrose Ave & Bushwick Ave,12
45,40.73781509,-73.99994661,223,W 13 St & 7 Ave,4
46,40.71559509,-73.9870295,350,Clinton St & Grand St,1
47,40.78472675,-73.96961715,3168,Central Park West & W 85 St,6
48,40.7462009,-73.98855723,486,Broadway & W 29 St,8
49,40.76030096,-73.99884222,478,11 Ave & W 41 St,5
50,40.722055,-73.989111,312,Allen St & Stanton St,1
51,40.71307916,-73.99851193,308,St James Pl & Oliver St,2
52,40.71759081805981,-73.99622440338135,263,Elizabeth St & Hester St,2
53,40.73038599,-74.00214988,368,Carmine St & 6 Ave,4
54,40.71754834,-74.01322069,426,West St & Chambers St,3
55,40.69363137,-73.96223558,354,Emerson Pl & Myrtle Ave,12
56,40.77801203,-73.95407149,3147,E 85 St & 3 Ave,6
57,40.69681963,-73.93756926,3064,Myrtle Ave & Lewis Ave,12
58,40.75929124,-73.98859651,2021,W 45 St & 8 Ave,5
59,40.77140426,-73.9535166,3140,1 Ave & E 78 St,6
60,40.68223166,-73.9614583,365,Fulton St & Grand Ave,12
61,40.75383343437622,-73.94267678260802,3237,21 St & 41 Ave,9
62,40.739445,-73.97680600000002,2012,E 27 St & 1 Ave,10
63,40.72953837,-73.98426726,326,E 11 St & 1 Ave,10
64,40.76915505,-73.98191841,499,Broadway & W 60 St,7
65,40.76019252,-73.9912551,479,9 Ave & W 45 St,5
66,40.72299208,-73.97995466,393,E 5 St & Avenue C,10
67,40.693261,-73.968896,366,Clinton Ave & Myrtle Ave,1
68,40.7381765,-73.97738662,174,E 25 St & 1 Ave,10
69,40.69128258,-73.9452416,3057,Kosciuszko St & Tompkins Ave,12
70,40.73401143,-74.00293877,380,W 4 St & 7 Ave S,4
71,40.71924,-73.95241999999998,3096,Union Ave & N 12 St,10
72,40.71534825,-73.96024116,539,Metropolitan Ave & Bedford Ave,10
73,40.74290902,-73.97706058,528,2 Ave & E 31 St,11
74,40.73997354103409,-74.00513872504234,3224,W 13 St & Hudson St,4
75,40.73226398,-73.99852205,252,MacDougal St & Washington Sq,4
76,40.756014,-73.967416,441,E 52 St & 2 Ave,9
77,40.74311555376486,-73.98215353488922,540,Lexington Ave & E 29 St,8
78,40.71581550000001,-73.99422366,412,Forsyth St & Canal St,2
79,40.78339981,-73.98093133,3162,W 78 St & Broadway,7
80,40.74734825,-73.99723551,494,W 26 St & 8 Ave,8
81,40.72906,-73.95779,3112,Milton St & Franklin St,10
82,40.7652654,-73.98192338,468,Broadway & W 55 St,7
83,40.73555,-73.95284000000002,3118,McGuinness Blvd & Eagle St,10
84,40.74780373,-73.97344190000003,518,E 39 St & 2 Ave,11
85,40.73454567,-73.99074142,285,Broadway & E 14 St,10
86,40.75797322,-73.96603308,385,E 55 St & 2 Ave,9
87,40.76727216,-73.99392888,72,W 52 St & 11 Ave,5
88,40.74854862,-73.98808416,498,Broadway & W 32 St,8
89,40.75660359,-73.9979009,448,W 37 St & 10 Ave,5
90,40.71273266,-74.0046073,387,Centre St & Chambers St,3
91,40.71146364,-74.00552427,224,Spruce St & Nassau St,3
92,40.76312584,-73.96526895,3134,3 Ave & E 62 St,9
93,40.73221853,-73.98165557,504,1 Ave & E 16 St,10
94,40.74177603,-74.00149746,116,W 17 St & 8 Ave,4
95,40.75022392,-73.97121414,2017,E 43 St & 2 Ave,11
96,40.74708586,-73.94977234,3125,45 Rd & 11 St,9
97,40.72019576,-73.98997825,401,Allen St & Rivington St,1
98,40.70862144,-74.00722156,376,John St & William St,3
99,40.73624527,-73.98473765,325,E 19 St & 3 Ave,10
100,40.75172632,-73.98753523,362,Broadway & W 37 St,8
101,40.74034320000001,-73.98955109,402,Broadway & E 22 St,8
102,40.683048,-73.964915,384,Fulton St & Washington Ave,12
103,40.728145,-73.990214,300,Shevchenko Pl & E 7 St,10
104,40.69580705,-73.97355569,419,Carlton Ave & Park Ave,2
105,40.76669671,-73.99061728,480,W 53 St & 10 Ave,5
106,40.689888,-73.981013,324,DeKalb Ave & Hudson Ave,2
107,40.7451677,-73.98683077,474,5 Ave & E 29 St,8
108,40.72740794,-73.98142006,445,E 10 St & Avenue A,10
109,40.732659999999996,-73.95826,3116,Huron St & Franklin St,10
110,40.73912601,-73.97973776,507,E 25 St & 2 Ave,10
111,40.7361967,-74.00859207,238,Bank St & Washington St,4
112,40.75640548,-73.9900262,477,W 41 St & 8 Ave,8
113,40.72210378668603,-73.99724900722505,151,Cleveland Pl & Spring St,2
114,40.770513,-73.988038,422,W 59 St & 10 Ave,7
115,40.77579376683666,-73.97620573639871,3165,Central Park West & W 72 St,7
116,40.71929301,-73.94500379,3095,Graham Ave & Herbert St,10
117,40.72903917,-73.99404649,335,Washington Pl & Broadway,4
118,40.73587678,-73.98205027,461,E 20 St & 2 Ave,10
119,40.76695317,-73.98169333,457,Broadway & W 58 St,7
120,40.77518615,-73.94446054,3157,East End Ave & E 86 St,6
121,40.726280700000004,-73.98978041,439,E 4 St & 2 Ave,10
122,40.6794268,-73.92989109999998,3042,Fulton St & Utica Ave,12
123,40.72456089,-73.99565293,250,Lafayette St & Jersey St N,1
124,40.716887,-73.96319799999998,2002,Wythe Ave & Metropolitan Ave,10
125,40.72521311,-73.97768752,394,E 9 St & Avenue C,10
126,40.74195138,-74.00803013,225,W 14 St & The High Line,4
127,40.77862688,-73.95772073,3145,E 84 St & Park Ave,6
128,40.76500525,-73.95818491,3141,1 Ave & E 68 St,9
129,40.68807003,-73.98410637,395,Bond St & Schermerhorn St,2
130,40.735238,-74.000271,383,Greenwich Ave & Charles St,4
131,40.68312489,-73.97895137,467,Dean St & 4 Ave,2
132,40.714215,-73.981346,502,Henry St & Grand St,1
133,40.72917025,-73.99810231,161,LaGuardia Pl & W 3 St,4
134,40.71893904,-73.99266288,531,Forsyth St & Broome St,1
135,40.68415748,-73.96922273,397,Fulton St & Clermont Ave,12
136,40.78414472,-73.98362492,3178,Riverside Dr & W 78 St,7
137,40.71427487,-73.98990025,307,Canal St & Rutgers St,2
138,40.74232744,-73.95411749,3119,Vernon Blvd & 50 Ave,9
139,40.72229346,-73.99147535,265,Stanton St & Chrystie St,1
140,40.7505853470215,-73.9946848154068,3255,8 Ave & W 31 St,8
141,40.7568001,-73.98291153,493,W 45 St & 6 Ave,11
142,40.696191999999996,-73.991218,322,Clinton St & Tillary St,2
143,40.70823502,-74.00530063,306,Cliff St & Fulton St,3
144,40.75828065,-73.97069431,367,E 53 St & Lexington Ave,9
145,40.71413311,-73.95234386,3087,Metropolitan Ave & Meeker Ave,10
146,40.73652889,-74.00618026,346,Bank St & Hudson St,4
147,40.70691254,-73.95441667,3073,Division Ave & Hooper St,1
148,40.76370739,-73.9851615,447,8 Ave & W 52 St,5
149,40.761227399999996,-73.96094022,3142,1 Ave & E 62 St,9
150,40.70834698,-74.01713445,363,West Thames St,3
151,40.76590936,-73.97634151,2006,Central Park S & 6 Ave,7
152,40.73314259,-73.97573881,487,E 20 St & FDR Drive,10
153,40.72217444,-73.98368779,301,E 2 St & Avenue B,10
154,40.71286844,-73.95698119,471,Grand St & Havemeyer St,10
155,40.68515959989177,-73.97711366415024,3222,Hanson Pl & St Felix St,2
156,40.77573034,-73.9567526,3146,E 81 St & 3 Ave,6
157,40.7284186,-73.98713956,236,St Marks Pl & 2 Ave,10
158,40.73935542,-73.99931783,482,W 15 St & 7 Ave,4
159,40.7454973,-74.00197139,509,9 Ave & W 22 St,4
160,40.71167351,-73.95141312,3082,Hope St & Union Ave,10
161,40.71413089,-73.99704679999998,296,Division St & Bowery,2
162,40.72467721,-73.98783413,428,E 3 St & 1 Ave,10
163,40.70411791,-73.94818595,3069,Lorimer St & Broadway,12
164,40.72580614,-73.97422494,339,Avenue D & E 12 St,10
165,40.71348658,-73.94792458,3084,Devoe St & Leonard St,10
166,40.734232,-73.986923,297,E 15 St & 3 Ave,10
167,40.7190095,-73.95852515,3092,Berry St & N 8 St,10
168,40.74394314,-73.97966069,476,E 31 St & 3 Ave,11
169,40.71494807,-74.00234482,386,Centre St & Worth St,3
170,40.71117444,-73.99682619,2009,Catherine St & Monroe St,2
171,40.749156,-73.9916,379,W 31 St & 7 Ave,8
172,40.73535398,-74.00483091,247,Perry St & Bleecker St,4
173,40.72153267,-73.95782357,3103,N 11 St & Wythe Ave,10
174,40.711512,-74.01575600000002,3002,South End Ave & Liberty St,3
175,40.76340613,-73.97722479,352,W 56 St & 6 Ave,11
176,40.74395411,-73.99144871,466,W 25 St & 6 Ave,8
177,40.69512845,-73.99595065,406,Hicks St & Montague St,2
178,40.70463334,-74.01361706,304,Broadway & Battery Pl,3
179,40.72317958,-73.99480012,251,Mott St & Prince St,1
180,40.717571,-74.005549,320,Leonard St & Church St,3
181,40.76227205,-73.98788205,450,W 49 St & 8 Ave,5
182,40.68833370000001,-73.950916,3055,Greene Ave & Nostrand Ave,12
183,40.73971301,-73.99456405,168,W 18 St & 6 Ave,4
184,40.717318403855785,-73.9482021331787,3089,Leonard St & Meeker Ave,10
185,40.707873,-74.00166999999998,279,Peck Slip & Front St,2
186,40.74765947,-73.98490707,526,E 33 St & 5 Ave,8
187,40.68676793,-73.95928168,120,Lexington Ave & Classon Ave,12
188,40.72179134,-73.95041540000003,3102,Driggs Ave & Lorimer St,10
189,40.77748046,-73.98288594,3175,W 70 St & Amsterdam Ave,7
190,40.74334935,-74.00681753,212,W 16 St & The High Line,4
191,40.73649403,-73.99704374,345,W 13 St & 6 Ave,4
192,40.72453734,-73.98185424,317,E 6 St & Avenue B,10
193,40.73291553,-74.00711384,358,Christopher St & Greenwich St,4
194,40.7014851,-73.98656928,430,York St & Jay St,2
195,40.72036775298455,-73.96165072917937,3016,Kent Ave & N 7 St,10
196,40.73331967,-73.99510132,280,E 10 St & 5 Ave,4
197,40.72311651,-73.95212324,3107,Bedford Ave & Nassau Ave,10
198,40.74345335,-74.00004031,470,W 20 St & 8 Ave,4
199,40.735640000000004,-73.95866,3117,Franklin St & Dupont St,10
200,40.72606,-73.95621,3109,Banker St & Meserole Ave,10
201,40.6809833854,-73.9500479759,437,Macon St & Nostrand Ave,12
202,40.70717936,-74.00887308,360,William St & Pine St,3
203,40.7546011026,-73.971878855,228,E 48 St & 3 Ave,11
204,40.68216564,-73.95399026,436,Hancock St & Bedford Ave,12
205,40.69196566,-73.9813018,239,Willoughby St & Fleet St,2
206,40.751872999999996,-73.97770600000003,519,Pershing Square North,11
207,40.71910537,-73.99973337,268,Howard St & Centre St,3
208,40.67890679,-73.94142771,3041,Kingston Ave & Herkimer St,12
209,40.70905623,-74.01043382,195,Liberty St & Broadway,3
210,40.70877084,-73.95095259,3077,Stagg St & Union Ave,10
211,40.74173969,-73.99415556,435,W 21 St & 6 Ave,4
212,40.72405549,-74.00965965,328,Watts St & Greenwich St,3
213,40.76269882,-73.99301222,495,W 47 St & 10 Ave,5
214,40.75097711,-73.98765428,267,Broadway & W 36 St,8
215,40.72621788,-73.98379855,432,E 7 St & Avenue A,10
216,40.744219,-73.97121214,501,FDR Drive & E 35 St,11
217,40.72779126,-73.98564945,438,St Marks Pl & 1 Ave,10
218,40.74901271,-73.98848395,505,6 Ave & W 33 St,8
219,40.71450451,-74.00562789,330,Reade St & Broadway,3
220,40.75001986,-73.96905301,455,1 Ave & E 44 St,11
221,40.75594159,-74.0021163,525,W 34 St & 11 Ave,5
222,40.75513557,-73.98658032,465,Broadway & W 41 St,11
223,40.70365182,-74.01167797,260,Broad St & Bridge St,3
224,40.70255088,-73.98940236,2000,Front St & Washington St,2
225,40.7031724,-73.940636,3068,Humboldt St & Varet St,12
226,40.7770575,-73.97898475,3164,Columbus Ave & W 72 St,7
227,40.71103537,-73.94714303,3079,Leonard St & Grand St,10
228,40.77282817,-73.96685276,3137,5 Ave & E 73 St,9
229,40.73224119,-74.00026394,369,Washington Pl & 6 Ave,4
230,40.72079821,-73.95484712,3101,N 12 St & Bedford Ave,10
231,40.76350532,-73.97109243,3132,E 59 St & Madison Ave,9
232,40.70122128,-74.01234218,259,South St & Whitehall St,3
233,40.78720869,-73.98128127,3169,Riverside Dr & W 82 St,7
234,40.75206862,-73.96784384,516,E 47 St & 1 Ave,9
235,40.75038009,-73.98338988,485,W 37 St & 5 Ave,11
236,40.711863,-73.944024,3081,Graham Ave & Grand St,12
237,40.70510918,-73.94407279,3070,McKibbin St & Manhattan Ave,12
238,40.75255434,-73.97282625,440,E 45 St & 3 Ave,11
239,40.768254,-73.988639,513,W 56 St & 10 Ave,5
240,40.76341379,-73.99667444,508,W 46 St & 11 Ave,5
241,40.74487634,-73.99529885,446,W 24 St & 7 Ave,8
242,40.76873687,-73.96119945,3152,3 Ave & E 71 St,9
243,40.724399,-74.004704,2004,6 Ave & Broome St,3
244,40.69102925677968,-73.99183362722397,3242,Schermerhorn St & Court St,2
245,40.73704984,-73.99009296,497,E 17 St & Broadway,10
246,40.779668090073116,-73.98093044757842,3167,Amsterdam Ave & W 73 St,7
247,40.76440023,-73.96648977,3155,Lexington Ave & E 63 St,9
248,40.68764484,-73.96968902,420,Clermont Ave & Lafayette Ave,2
249,40.76584941,-73.98690506,423,W 54 St & 9 Ave,5
250,40.76780080148132,-73.96592080593109,3231,E 67 St & Park Ave,9
251,40.710451,-73.960876,532,S 5 Pl & S 4 St,1
252,40.76095756,-73.96724467,305,E 58 St & 3 Ave,9
253,40.75455731,-73.96592976,454,E 51 St & 1 Ave,9
254,40.74096374,-73.98602213,491,E 24 St & Park Ave S,8
255,40.75466591,-73.99138152,523,W 38 St & 8 Ave,8
256,40.70925562,-73.95982218,3078,Broadway & Roebling St,1
257,40.75898481399634,-73.99379968643187,3236,W 42 St & Dyer Ave,5
258,40.70853074,-73.96408963,443,Bedford Ave & S 9 St,1
259,40.75756989999999,-73.99098507,529,W 42 St & 8 Ave,5
260,40.76461837,-73.98789473,449,W 52 St & 9 Ave,5
261,40.71473993,-74.00910627,152,Warren St & Church St,3
262,40.71605866,-73.99190759,361,Allen St & Hester St,2
263,40.74937024193277,-73.99923384189607,3259,9 Ave & W 28 St,8
264,40.72185379,-74.00771779,248,Laight St & Hudson St,3
265,40.71076228,-73.99400398,408,Market St & Cherry St,2
266,40.72110063,-73.99192540000001,473,Rivington St & Chrystie St,1
267,40.71406667,-73.99293911,295,Pike St & E Broadway,2
268,40.71870987,-74.0090009,249,Harrison St & Hudson St,3
269,40.751581,-73.97791,517,Pershing Square South,11
270,40.6894932,-73.942061,3054,Greene Ave & Throop Ave,12
271,40.68691865,-73.976682,274,Lafayette Ave & Fort Greene Pl,2
272,40.75110165,-73.94073717,3129,Queens Plaza North & Crescent St,9
273,40.720873600000004,-73.98085795,150,E 2 St & Avenue C,10
274,40.71602118,-73.99974372,355,Bayard St & Baxter St,2
275,40.71173107,-73.99193043,331,Pike St & Monroe St,2
276,40.68940747,-73.96885458,258,DeKalb Ave & Vanderbilt Ave,2
277,40.76068327096592,-73.98452728986742,173,Broadway & W 49 St,11
278,40.686203000000006,-73.944694,3241,Monroe St & Tompkins Ave,12
279,40.752062306999996,-73.9816324043,153,E 40 St & 5 Ave,11
280,40.77896784,-73.97374737,3160,Central Park West & W 76 St,7
281,40.71850211,-73.98329859,349,Rivington St & Ridge St,1
282,40.71622644,-73.98261206,356,Bialystoker Pl & Delancey St,1
283,40.7160751,-73.95202900000002,3088,Union Ave & Jackson St,10
284,40.78524672,-73.97667321,3171,Amsterdam Ave & W 82 St,7
285,40.72708584,-73.95299117,3110,Meserole Ave & Manhattan Ave,10
286,40.74144387,-73.97536082,536,1 Ave & E 30 St,11
287,40.7277140777778,-74.01129573583603,3256,Pier 40 - Hudson River Park,4
288,40.72228087,-73.97668709,411,E 6 St & Avenue D,10
289,40.71044554,-73.96525063,389,Broadway & Berry St,1
290,40.7047177,-74.00926027,415,Pearl St & Hanover Square,3
291,40.7172274,-73.98802084,311,Norfolk St & Broome St,1
292,40.7728384,-73.94989233,3151,E 81 St & York Ave,6
293,40.6906495,-73.95643107,409,DeKalb Ave & Skillman St,12
294,40.72325,-73.94308000000002,3106,Driggs Ave & N Henry St,10
295,40.69237074,-73.93705428,3058,Lewis Ave & Kosciuszko St,12
296,40.73492695,-73.99200509,382,University Pl & E 14 St,4
297,40.75968085,-73.97031366,2023,E 55 St & Lexington Ave,9
298,40.715337899999994,-74.01658354,327,Vesey Pl & River Terrace,3
299,40.70224,-73.982578,418,Front St & Gold St,2
300,40.76228826,-73.98336183,500,Broadway & W 51 St,11
301,40.74571210000001,-73.98194829,472,E 32 St & Park Ave,8
302,40.71625008,-74.0091059,146,Hudson St & Reade St,3
303,40.7076449441757,-73.96841526031494,282,Kent Ave & S 11 St,1
304,40.764397100000004,-73.97371465,281,Grand Army Plaza & Central Park S,9
305,40.70530954,-74.00612572,351,Front St & Maiden Ln,3
306,40.6814598,-73.934903,3043,Lewis Ave & Decatur St,12
307,40.72743423,-73.99379025,229,Great Jones St,10
308,40.72165481,-74.00234737,2010,Grand St & Greene St,3
309,40.777507027547976,-73.98888587951659,3173,Riverside Blvd & W 67 St,7
310,40.74691959,-74.00451887,462,W 22 St & 10 Ave,4
311,40.69608941,-73.97803415,119,Park Ave & St Edwards St,2
312,40.724055,-73.955736,3105,N 15 St & Wythe Ave,10
313,40.76344058,-73.98268129,469,Broadway & W 53 St,11
314,40.71542197,-74.01121978,147,Greenwich St & Warren St,3
315,40.71117416,-74.00016545,82,St James Pl & Pearl St,2
316,40.72362738,-73.99949601,303,Mercer St & Spring St,3
317,40.749717753,-74.002950346,388,W 26 St & 10 Ave,4
318,40.72706363348306,-73.99662137031554,3260,Mercer St & Bleecker St,4
319,40.75645824,-73.99372222,488,W 39 St & 9 Ave,5
320,40.77314236,-73.95856158,3154,E 77 St & 3 Ave,6
321,40.71911552,-74.00666661,79,Franklin St & W Broadway,3
322,40.70569254,-74.01677685,2008,Little West St & 1 Pl,3
323,40.72015227023285,-74.01036500930786,329,Greenwich St & North Moore St,3
324,40.77492513,-73.98266566,3159,W 67 St & Broadway,7
325,40.71219906,-73.97948148,332,Cherry St,1
326,40.69474881,-73.98362464,261,Johnson St & Gold St,2
327,40.71739973,-73.98016555,342,Columbia St & Rivington St,1
328,40.74436328706688,-73.95587325096129,3122,48 Ave & 5 St,9
329,40.759107,-73.959223,2022,E 60 St & York Ave,9
330,40.698617,-73.941342,3179,Park Ave & Marcus Garvey Blvd,12
331,40.68236870000001,-73.944118,3047,Halsey St & Tompkins Ave,12
332,40.74025878,-73.98409214,537,Lexington Ave & E 24 St,8
333,40.71269042,-73.98776323,340,Madison St & Clinton St,2
334,40.75714758,-73.97207836,522,E 51 St & Lexington Ave,11
335,40.70281858,-73.98765762,414,Pearl St & Anchorage Pl,2
336,40.77452835,-73.98753759,3176,W 64 St & West End Ave,7
337,40.7801839724239,-73.97728532552719,3161,W 76 St & Columbus Ave,7
338,40.72368361,-73.97574813,266,Avenue D & E 8 St,10
339,40.68650065,-73.96563307,275,Washington Ave & Greene Ave,12
340,40.71748752,-74.0104554,276,Duane St & Greenwich St,3
341,40.78499979,-73.97283406,3170,W 84 St & Columbus Ave,7
342,40.68683208,-73.9796772,298,3 Ave & Schermerhorn St,2
343,40.76817546742245,-73.95910263061523,3153,E 71 St & 2 Ave,9
344,40.71939226,-74.00247214,257,Lispenard St & Broadway,3
345,40.75892386377695,-73.96226227283478,3243,E 58 St & 1 Ave,9
346,40.69622937,-73.94371094,3061,Throop Ave & Myrtle Ave,12
347,40.725848299999996,-73.95064893,3111,Norman Ave & Leonard St,10
348,40.682601,-73.938037,3046,Marcus Garvey Blvd & Macon St,12
349,40.68851534,-73.9647628,399,Lafayette Ave & St James Pl,12
350,40.78057799010335,-73.98562431335448,3166,Riverside Dr & W 72 St,7
351,40.72082834,-73.97793172,302,Avenue D & E 3 St,10
352,40.75510267,-73.97498696,359,E 47 St & Park Ave,11
353,40.7867947,-73.977112,3177,W 84 St & Broadway,7
354,40.73143724085228,-73.99490341544151,3244,University Pl & E 8 St,4
355,40.74718234,-73.9432635,3126,44 Dr & Jackson Ave,9
356,40.77163851,-73.98261428,3158,W 63 St & Broadway,7
357,40.69425403,-73.94626915,3060,Willoughby Ave & Tompkins Ave,12
358,40.69766564,-73.98476437,278,Concord St & Bridge St,2
359,40.69991755,-73.98971773,321,Cadman Plaza E & Red Cross Pl,2
360,40.75724567911726,-73.97805914282799,3233,E 48 St & 5 Ave,11
361,40.724812564400175,-73.94752621650694,3100,Nassau Ave & Newell St,10
362,40.7606597,-73.98042047,510,W 51 St & 6 Ave,11
363,40.758996559605116,-73.96865397691727,3223,E 55 St & 3 Ave,9
364,40.76663814,-73.95348296,3156,E 72 St & York Ave,9
365,40.77391390238118,-73.9543953537941,3238,E 80 St & 2 Ave,6
366,40.7785669,-73.97754961,3172,W 74 St & Columbus Ave,7
367,40.751283596962296,-73.99692445993422,3230,Penn Station Valet,8
368,40.73232194,-73.9550858,3115,India St & Manhattan Ave,10
369,40.72557000000001,-73.94434,3108,Nassau Ave & Russell St,10
370,40.7734066,-73.97782542,3163,Central Park West & W 68 St,7
371,40.75500254,-73.98014437,484,W 44 St & 5 Ave,11
372,40.742354299999995,-73.98915076,444,Broadway & W 24 St,8
373,40.746646999999996,-73.993915,442,W 27 St & 7 Ave,8
374,40.6917823,-73.97372990000002,262,Washington Park,2
375,40.69573398,-73.97129668,421,Clermont Ave & Park Ave,1
376,40.75527307,-73.98316936,524,W 43 St & 6 Ave,11
377,40.75299641,-73.98721619,533,Broadway & W 39 St,8
378,40.69327018,-73.97703874,245,Myrtle Ave & St Edwards St,2
379,40.71782143,-73.97628939,341,Stanton St & Mangin St,1
380,40.6851443,-73.95380904,344,Monroe St & Bedford Ave,12
381,40.701907,-74.013942,427,Bus Slip & State St,3
382,40.70870368,-73.9448625,3076,Scholes St & Manhattan Ave,12
383,40.70355377,-74.00670227,315,South St & Gouverneur Ln,3
384,40.78275,-73.97137,3226,W 82 St & Central Park West,7
385,40.771522,-73.99054100000002,530,11 Ave & W 59 St,7
386,40.74731,-73.95451,3124,46 Ave & 5 St,9
387,40.69308257,-73.97178913,270,Adelphi St & Myrtle Ave,2
388,40.77682863439968,-73.96388769149779,3143,5 Ave & E 78 St,6
389,40.75323098,-73.97032517,164,E 47 St & 2 Ave,11
390,40.774405455003,-73.96175265312193,3138,E 77 St & Park Ave,6
391,40.70029511,-73.95032283,3065,Union Ave & Wallabout St,12
392,40.76712840349542,-73.96224617958069,3131,E 68 St & 3 Ave,9
393,40.73726186,-73.99238967,496,E 16 St & 5 Ave,4
394,40.70379920000001,-74.00838676,337,Old Slip & Front St,3
395,40.686312,-73.935775,3052,Lewis Ave & Madison St,12
396,40.714690000000004,-73.95739,3085,Roebling St & N 4 St,10
397,40.71247661,-73.94100005,3083,Bushwick Ave & Powers St,12
398,40.70037867,-73.99548059,216,Columbia Heights & Cranberry St,2
399,40.68981035,-73.97493121,241,DeKalb Ave & S Portland Ave,2
400,40.75992262,-73.97648516,520,W 52 St & 5 Ave,11
401,40.69878,-73.99712,3180,Brooklyn Bridge Park - Pier 2,2
402,40.75971079999999,-73.97402311,456,E 53 St & Madison Ave,11
403,40.71764,-73.94882,3091,Frost St & Meeker St,10
404,40.70583339,-73.94644578,3072,Leonard St & Boerum St,12
405,40.70255065,-74.0127234,534,Water - Whitehall Plaza,3
406,40.68753406,-73.97265183,416,Cumberland St & Lafayette Ave,2
407,40.69239502,-73.99337909,143,Clinton St & Joralemon St,2
408,40.684568299999995,-73.95881081,289,Monroe St & Classon Ave,12
409,40.68926942,-73.98912867,310,State St & Smith St,2
410,40.71928,-73.94861,3098,Leonard St & Bayard St,10
411,40.741609999999994,-73.96044,3120,Center Blvd & Borden Ave,9
412,40.699773,-73.979927,2001,Sands St & Navy St,2
413,40.69597683,-73.99014892,232,Cadman Plaza E & Tillary St,2
414,40.68382604,-73.97632328,83,Atlantic Ave & Fort Greene Pl,2
415,40.70955958,-74.00653609,316,Fulton St & William St,3
416,40.71926081,-73.98178024,400,Pitt St & Stanton St,1
417,40.68962188790333,-73.98304268717766,3232,Bond St & Fulton St,2
418,40.693398200000004,-73.939877,3059,Pulaski St & Marcus Garvey Blvd,12
419,40.70934000000001,-73.95608,3080,S 4 St & Rodney St,1
420,40.71285887,-73.96590294,460,S 4 St & Wythe Ave,1
421,40.7169811,-73.94485918,3094,Graham Ave & Withers St,10
422,40.69221589,-73.9842844,390,Duffield St & Willoughby St,2
423,40.752165280621966,-73.97992193698882,3235,E 41 St & Madison Ave,11
424,40.695065,-73.987167,392,Jay St & Tech Pl,2
425,40.69331716,-73.95381995,373,Willoughby Ave & Walworth St,12
426,40.69072549,-73.95133465,3056,Kosciuszko St & Nostrand Ave,12
427,40.680356084043396,-73.94767910242079,3249,Verona Pl & Fulton St,12
428,40.77118287540658,-73.96409422159195,3139,E 72 St & Park Ave,9
429,40.730259999999994,-73.95394,3113,Greenpoint Ave & Manhattan Ave,10
430,40.7016657,-73.9437303,3067,Broadway & Whipple St,12
431,40.6900815,-73.94791500000002,3053,Marcy Ave & Lafayette Ave,12
432,40.68900443,-73.96023854,364,Lafayette Ave & Classon Ave,12
433,40.761628,-73.972924,137,E 56 St & Madison Ave,9
434,40.69196035,-73.96536851,244,Willoughby Ave & Hall St,12
435,40.69610226,-73.96751037,313,Washington Ave & Park Ave,1
436,40.694281141397326,-73.99230033159256,3246,Montague St & Clinton St,2
437,40.7149787,-74.013012,309,Murray St & West St,3
438,40.700469,-73.991454,407,Henry St & Poplar St,2
439,40.73543934,-73.99453948,253,W 13 St & 5 Ave,4
440,40.680342423,-73.9557689392,396,Lefferts Pl & Franklin Ave,12
441,40.68488,-73.96304,3049,Cambridge Pl & Gates Ave,12
442,40.69794,-73.96986848,343,Clinton Ave & Flushing Ave,1
443,40.6851532,-73.94111,3050,Putnam Ave & Throop Ave,12
444,40.72152240339303,-73.94898265600203,3099,Leonard St & Manhattan Ave,10
445,40.69760127,-73.99344559,391,Clark St & Henry St,2
446,40.68539567,-73.97431458,353,S Portland Ave & Hanson Pl,2
447,40.684020000000004,-73.94977,3048,Putnam Ave & Nostrand Ave,12
448,40.69165183,-73.99997859999998,398,Atlantic Ave & Furman St,2
449,40.688226,-73.979382,243,Fulton St & Rockwell Pl,2
450,40.74524768,-73.94733276,3121,Jackson Ave & 46 Rd,9
451,40.697787,-73.973736,242,Carlton Ave & Flushing Ave,1
452,40.74966,-73.9521,3127,9 St & 44 Rd,9
453,40.6800105,-73.938475,3044,Albany Ave & Fulton St,12
454,40.69839895,-73.98068914,144,Nassau St & Navy St,2
455,40.70538077,-73.94976519,3071,Boerum St & Broadway,12
456,40.75052534,-73.94594845,3128,21 St & 43 Ave,9
457,40.70708701,-73.95796783,3075,Division Ave & Marcy Ave,1
458,40.69231660719192,-74.01486575603484,3254,Soissons Landing,3
459,40.70531194,-73.97100056,2005,Railroad Ave & Kay Ave,1
460,40.73165141,-73.96161892,3114,India St & East River,10
461,40.743,-73.93561,3221,47 Ave & 31 St,9
462,40.69539817,-73.94954908,3062,Myrtle Ave & Marcy Ave,12
463,40.69957608,-73.94708417,3066,Tompkins Ave & Hopkins St,12
464,40.686931,-74.016966,3182,Yankee Ferry Terminal,3
465,40.69527008,-73.95238108,3063,Nostrand Ave & Myrtle Ave,12
466,40.74469738,-73.93540375,3123,31 St & Thomson Ave,9
467,40.646768,-74.01651,255,NYCBS Depot - SSP,2
468,40.729193,-73.97665500000002,3219,NYCBS Depot - STY,10
469,40.751483,-73.996764,3017,NYCBS Depot - FAR,8
470,40.72923649910006,-73.99086803197861,3263,Cooper Square & E 7 St,10
471,40.646677898897856,-74.01630342006682,3245,Kiosk in a box Motivate,2
472,40.76421007169064,-73.96910458803177,3264,E 61 St & Park Ave,9
473,40.713126,-73.984844,291,Madison St & Montgomery St,1
474,40.7245634290432,-73.9894437789917,3265,E 2 St & 2 Ave,10
475,40.716909780459645,-73.98383796215056,3250,NYCBS Depot - PIT,1
476,40.73827428,-73.98751968,503,E 20 St & Park Ave,10
477,40.684868747593924,-74.02544975280763,3036,8D OPS 01,3
478,40.646678,-74.016263,3040,SSP Tech Workshop,2
479,40.75066386,-74.00176802,489,10 Ave & W 28 St,5
480,40.75018156325681,-74.00218427181244,3258,W 27 St & 10 Ave,5
481,40.77677702,-73.95900970000002,3144,E 81 St & Park Ave,6
482,40.70861098096821,-73.92850399017334,3266,Kiosk in a box Deployment,12
